[{"Station":"West Ruislip","Cluster":0,"Line":"Central","Latitude":51.569587157,"Longitude":-0.4378601344},{"Station":"Ruislip Gardens","Cluster":0,"Line":"Central","Latitude":51.5599595105,"Longitude":-0.4092941014},{"Station":"South Ruislip","Cluster":0,"Line":"Central","Latitude":51.5568896515,"Longitude":-0.399115901},{"Station":"Northolt","Cluster":1,"Line":"Central","Latitude":51.5482123002,"Longitude":-0.3684405876},{"Station":"Greenford","Cluster":2,"Line":"Central","Latitude":51.541979507,"Longitude":-0.3458787331},{"Station":"Perivale","Cluster":3,"Line":"Central","Latitude":51.5363412947,"Longitude":-0.3230704159},{"Station":"Hanger Lane","Cluster":4,"Line":"Central","Latitude":51.5300715563,"Longitude":-0.2929961406},{"Station":"Ealing Broadway","Cluster":3,"Line":"Central","Latitude":51.5148614828,"Longitude":-0.3020103761},{"Station":"West Acton","Cluster":3,"Line":"Central","Latitude":51.5177696931,"Longitude":-0.2806571709},{"Station":"North Acton","Cluster":4,"Line":"Central","Latitude":51.5234320046,"Longitude":-0.2597295239},{"Station":"East Acton","Cluster":1,"Line":"Central","Latitude":51.5162630105,"Longitude":-0.2481122213},{"Station":"White City","Cluster":3,"Line":"Central","Latitude":51.5122320723,"Longitude":-0.2246319285},{"Station":"Shepherds Bush","Cluster":4,"Line":"Central","Latitude":51.5045317956,"Longitude":-0.2185191567},{"Station":"Holland Park","Cluster":4,"Line":"Central","Latitude":51.5071461481,"Longitude":-0.2065577754},{"Station":"Notting Hill Gate","Cluster":4,"Line":"Central","Latitude":51.509375018,"Longitude":-0.1959216162},{"Station":"Queensway","Cluster":4,"Line":"Central","Latitude":51.5104489285,"Longitude":-0.187419901},{"Station":"Lancaster Gate","Cluster":1,"Line":"Central","Latitude":51.5118906583,"Longitude":-0.1754299268},{"Station":"Marble Arch","Cluster":1,"Line":"Central","Latitude":51.5139652347,"Longitude":-0.1585712148},{"Station":"Bond Street","Cluster":5,"Line":"Central & Jubilee","Latitude":51.5137972823,"Longitude":-0.1496136085},{"Station":"Oxford Circus","Cluster":5,"Line":"Central & Victoria","Latitude":51.5152231744,"Longitude":-0.1408361701},{"Station":"Tottenham Court Road","Cluster":4,"Line":"Central & Northern","Latitude":51.5162106579,"Longitude":-0.1311104379},{"Station":"Holborn","Cluster":5,"Line":"Central","Latitude":51.5172355414,"Longitude":-0.1198405066},{"Station":"Chancery Lane","Cluster":5,"Line":"Central","Latitude":51.5184938358,"Longitude":-0.1119620268},{"Station":"St. Pauls","Cluster":5,"Line":"Central","Latitude":51.5148351387,"Longitude":-0.0975710001},{"Station":"Bank","Cluster":3,"Line":"Central & Northern","Latitude":51.5133469191,"Longitude":-0.0890001235},{"Station":"Liverpool Street","Cluster":4,"Line":"Central","Latitude":51.5175981323,"Longitude":-0.0822496219},{"Station":"Bethnal Green","Cluster":4,"Line":"Central","Latitude":51.5271916531,"Longitude":-0.0553921115},{"Station":"Mile End","Cluster":4,"Line":"Central","Latitude":51.5253109196,"Longitude":-0.0326660843},{"Station":"Stratford","Cluster":4,"Line":"Central & Jubilee","Latitude":51.5416925759,"Longitude":-0.003751641},{"Station":"Leyton","Cluster":1,"Line":"Central","Latitude":51.5581322623,"Longitude":-0.0064653316},{"Station":"Leytonstone","Cluster":3,"Line":"Central & Central","Latitude":51.5685223067,"Longitude":0.009140452},{"Station":"Snaresbrook","Cluster":6,"Line":"Central","Latitude":51.5808913116,"Longitude":0.0214639278},{"Station":"South Woodford","Cluster":0,"Line":"Central","Latitude":51.5915526648,"Longitude":0.0279430784},{"Station":"Woodford","Cluster":3,"Line":"Central","Latitude":51.6072019028,"Longitude":0.0340562024},{"Station":"Buckhurst Hill","Cluster":0,"Line":"Central","Latitude":51.62657674,"Longitude":0.0467125414},{"Station":"Loughton","Cluster":0,"Line":"Central","Latitude":51.6415705708,"Longitude":0.0552790793},{"Station":"Debden","Cluster":3,"Line":"Central","Latitude":51.6454921415,"Longitude":0.0838014753},{"Station":"Theydon Bois","Cluster":0,"Line":"Central","Latitude":51.6725522542,"Longitude":0.1028907369},{"Station":"Wanstead","Cluster":6,"Line":"Central","Latitude":51.5749021996,"Longitude":0.0287604724},{"Station":"Redbridge","Cluster":3,"Line":"Central","Latitude":51.5763669944,"Longitude":0.0453940441},{"Station":"Gants Hill","Cluster":3,"Line":"Central","Latitude":51.5765530629,"Longitude":0.0660840981},{"Station":"Newbury Park","Cluster":3,"Line":"Central","Latitude":51.5756385065,"Longitude":0.0903031582},{"Station":"Barkingside","Cluster":3,"Line":"Central","Latitude":51.5858507615,"Longitude":0.0884766401},{"Station":"Fairlop","Cluster":3,"Line":"Central","Latitude":51.5961096942,"Longitude":0.0905932799},{"Station":"Hainault","Cluster":3,"Line":"Central","Latitude":51.6028454838,"Longitude":0.0941085508},{"Station":"Grange Hill","Cluster":0,"Line":"Central","Latitude":51.6134805793,"Longitude":0.0922725302},{"Station":"Chigwell","Cluster":0,"Line":"Central","Latitude":51.6178579997,"Longitude":0.0761792154},{"Station":"Roding Valley","Cluster":6,"Line":"Central","Latitude":51.6169565208,"Longitude":0.0440262071},{"Station":"Epping","Cluster":0,"Line":"Central","Latitude":51.693686355,"Longitude":0.1138255535},{"Station":"Morden","Cluster":3,"Line":"Northern","Latitude":51.4021856447,"Longitude":-0.1948519795},{"Station":"South Wimbledon","Cluster":0,"Line":"Northern","Latitude":51.4153603978,"Longitude":-0.1919745441},{"Station":"Colliers Wood","Cluster":0,"Line":"Northern","Latitude":51.4187588995,"Longitude":-0.177415098},{"Station":"Tooting Broadway","Cluster":3,"Line":"Northern","Latitude":51.4270488709,"Longitude":-0.1686845258},{"Station":"Tooting Bec","Cluster":0,"Line":"Northern","Latitude":51.435837805,"Longitude":-0.1597004908},{"Station":"Balham","Cluster":0,"Line":"Northern","Latitude":51.4431823144,"Longitude":-0.152685162},{"Station":"Clapham South","Cluster":0,"Line":"Northern","Latitude":51.4526762492,"Longitude":-0.1479840683},{"Station":"Clapham Common","Cluster":1,"Line":"Northern","Latitude":51.4618034458,"Longitude":-0.1383149014},{"Station":"Clapham North","Cluster":4,"Line":"Northern","Latitude":51.4649160047,"Longitude":-0.1299100619},{"Station":"Stockwell","Cluster":6,"Line":"Northern & Victoria","Latitude":51.4721590571,"Longitude":-0.1228463034},{"Station":"Oval","Cluster":4,"Line":"Northern","Latitude":51.4814124174,"Longitude":-0.1133210751},{"Station":"Kennington","Cluster":6,"Line":"Northern","Latitude":51.4886622888,"Longitude":-0.1050706128},{"Station":"Waterloo","Cluster":3,"Line":"Northern & Jubilee","Latitude":51.5031464568,"Longitude":-0.1132592513},{"Station":"Embankment","Cluster":1,"Line":"Northern","Latitude":51.5073122969,"Longitude":-0.1223673357},{"Station":"Charing Cross","Cluster":4,"Line":"Northern","Latitude":51.5083584282,"Longitude":-0.1248029372},{"Station":"Leicester Square","Cluster":5,"Line":"Northern","Latitude":51.5112909742,"Longitude":-0.1282421466},{"Station":"Goodge Street","Cluster":5,"Line":"Northern","Latitude":51.5206128913,"Longitude":-0.1348076891},{"Station":"Warren Street","Cluster":1,"Line":"Northern & Victoria","Latitude":51.5245797648,"Longitude":-0.1382783305},{"Station":"Euston","Cluster":4,"Line":"Northern & Victoria","Latitude":51.5286641148,"Longitude":-0.1332964708},{"Station":"Mornington Crescent","Cluster":5,"Line":"Northern","Latitude":51.5343619927,"Longitude":-0.1387443487},{"Station":"Elephant and Castle","Cluster":4,"Line":"Northern","Latitude":51.49584922,"Longitude":-0.1007387143},{"Station":"Borough","Cluster":1,"Line":"Northern","Latitude":51.5010487177,"Longitude":-0.0941973226},{"Station":"London Bridge","Cluster":4,"Line":"Northern & Jubilee","Latitude":51.5046742093,"Longitude":-0.0860055977},{"Station":"Moorgate","Cluster":3,"Line":"Northern","Latitude":51.5184369958,"Longitude":-0.0890176874},{"Station":"Old Street","Cluster":1,"Line":"Northern","Latitude":51.5255813307,"Longitude":-0.0876229574},{"Station":"Angel","Cluster":2,"Line":"Northern","Latitude":51.5329678454,"Longitude":-0.1055814483},{"Station":"Kings Cross St. Pancras","Cluster":4,"Line":"Northern & Victoria","Latitude":51.5303122619,"Longitude":-0.1238721287},{"Station":"Camden Town","Cluster":4,"Line":"Northern","Latitude":51.5399691216,"Longitude":-0.1424523799},{"Station":"Kentish Town","Cluster":2,"Line":"Northern","Latitude":51.5500092943,"Longitude":-0.1404712627},{"Station":"Tufnell Park","Cluster":6,"Line":"Northern","Latitude":51.556440575,"Longitude":-0.1377421741},{"Station":"Archway","Cluster":3,"Line":"Northern","Latitude":51.5654903155,"Longitude":-0.1351215756},{"Station":"Highgate","Cluster":0,"Line":"Northern","Latitude":51.5776463793,"Longitude":-0.1469348609},{"Station":"East Finchley","Cluster":0,"Line":"Northern","Latitude":51.5873322776,"Longitude":-0.1647438844},{"Station":"Finchley Central","Cluster":3,"Line":"Northern","Latitude":51.6009029369,"Longitude":-0.1932206347},{"Station":"West Finchley","Cluster":0,"Line":"Northern","Latitude":51.6092624212,"Longitude":-0.1889171075},{"Station":"Woodside Park","Cluster":0,"Line":"Northern","Latitude":51.617868099,"Longitude":-0.1854255027},{"Station":"Totteridge and Whetstone","Cluster":0,"Line":"Northern","Latitude":51.6302464288,"Longitude":-0.1793542612},{"Station":"Chalk Farm","Cluster":1,"Line":"Northern","Latitude":51.5441488373,"Longitude":-0.1537330695},{"Station":"Belsize Park","Cluster":4,"Line":"Northern","Latitude":51.5501906118,"Longitude":-0.163974491},{"Station":"Hampstead","Cluster":4,"Line":"Northern","Latitude":51.5565423064,"Longitude":-0.1780145581},{"Station":"Golders Green","Cluster":6,"Line":"Northern","Latitude":51.5722152169,"Longitude":-0.1948345569},{"Station":"Brent Cross","Cluster":6,"Line":"Northern","Latitude":51.5765988684,"Longitude":-0.2133358379},{"Station":"Hendon Central","Cluster":1,"Line":"Northern","Latitude":51.5831326782,"Longitude":-0.2267341371},{"Station":"Colindale","Cluster":6,"Line":"Northern","Latitude":51.5952301089,"Longitude":-0.2502875401},{"Station":"Burnt Oak","Cluster":1,"Line":"Northern","Latitude":51.6025514817,"Longitude":-0.2643307082},{"Station":"Edgware","Cluster":3,"Line":"Northern","Latitude":51.6142291745,"Longitude":-0.2750936621},{"Station":"West Ham","Cluster":1,"Line":"Jubilee","Latitude":51.5285255307,"Longitude":0.0053173938},{"Station":"Canning Town","Cluster":2,"Line":"Jubilee","Latitude":51.5138703035,"Longitude":0.0083056327},{"Station":"North Greenwich","Cluster":4,"Line":"Jubilee","Latitude":51.5002551611,"Longitude":0.0035862591},{"Station":"Canary Wharf","Cluster":2,"Line":"Jubilee","Latitude":51.5035783751,"Longitude":-0.0194668401},{"Station":"Canada Water","Cluster":6,"Line":"Jubilee","Latitude":51.4981683313,"Longitude":-0.0508071208},{"Station":"Bermondsey","Cluster":1,"Line":"Jubilee","Latitude":51.4979606775,"Longitude":-0.0643300898},{"Station":"Southwark","Cluster":1,"Line":"Jubilee","Latitude":51.5038534497,"Longitude":-0.1057949389},{"Station":"Westminster","Cluster":5,"Line":"Jubilee","Latitude":51.5014013892,"Longitude":-0.1250020783},{"Station":"Green Park","Cluster":5,"Line":"Jubilee & Victoria","Latitude":51.5067602537,"Longitude":-0.1424775744},{"Station":"Baker Street","Cluster":4,"Line":"Jubilee","Latitude":51.5231293661,"Longitude":-0.156904193},{"Station":"St. Johns Wood","Cluster":4,"Line":"Jubilee","Latitude":51.5348541284,"Longitude":-0.1740648387},{"Station":"Swiss Cottage","Cluster":1,"Line":"Jubilee","Latitude":51.5430345617,"Longitude":-0.1756266026},{"Station":"Finchley Road","Cluster":1,"Line":"Jubilee","Latitude":51.5470959064,"Longitude":-0.1800505586},{"Station":"West Hampstead","Cluster":0,"Line":"Jubilee","Latitude":51.5474740227,"Longitude":-0.1911265834},{"Station":"Kilburn","Cluster":3,"Line":"Jubilee","Latitude":51.5469441029,"Longitude":-0.2046327167},{"Station":"Willesden Green","Cluster":6,"Line":"Jubilee","Latitude":51.5493729248,"Longitude":-0.2224076012},{"Station":"Dollis Hill","Cluster":1,"Line":"Jubilee","Latitude":51.5518502023,"Longitude":-0.2387977584},{"Station":"Neasden","Cluster":1,"Line":"Jubilee","Latitude":51.55462731,"Longitude":-0.2501150417},{"Station":"Wembley Park","Cluster":4,"Line":"Jubilee","Latitude":51.5633220035,"Longitude":-0.2792425481},{"Station":"Kingsbury","Cluster":2,"Line":"Jubilee","Latitude":51.5848760635,"Longitude":-0.2786016037},{"Station":"Queensbury","Cluster":3,"Line":"Jubilee","Latitude":51.5938825093,"Longitude":-0.2863315926},{"Station":"Canons Park","Cluster":3,"Line":"Jubilee","Latitude":51.6076500903,"Longitude":-0.2943915915},{"Station":"Stanmore","Cluster":3,"Line":"Jubilee","Latitude":51.6196729505,"Longitude":-0.3030992876},{"Station":"Brixton","Cluster":6,"Line":"Victoria","Latitude":51.462736617,"Longitude":-0.1145520968},{"Station":"Vauxhall","Cluster":4,"Line":"Victoria","Latitude":51.4857356015,"Longitude":-0.123829952},{"Station":"Pimlico","Cluster":4,"Line":"Victoria","Latitude":51.4895526466,"Longitude":-0.1331082574},{"Station":"Victoria","Cluster":4,"Line":"Victoria","Latitude":51.4964237196,"Longitude":-0.1439207051},{"Station":"Highbury and Islington","Cluster":4,"Line":"Victoria","Latitude":51.5464953388,"Longitude":-0.1040821392},{"Station":"Finsbury Park","Cluster":6,"Line":"Victoria","Latitude":51.5646352748,"Longitude":-0.1058814855},{"Station":"Seven Sisters","Cluster":1,"Line":"Victoria","Latitude":51.583362044,"Longitude":-0.0724668225},{"Station":"Tottenham Hale","Cluster":1,"Line":"Victoria","Latitude":51.5879976823,"Longitude":-0.0601878225},{"Station":"Blackhorse Road","Cluster":3,"Line":"Victoria","Latitude":51.5857765648,"Longitude":-0.0396257115},{"Station":"Walthamstow Central","Cluster":3,"Line":"Victoria","Latitude":51.5830180834,"Longitude":-0.019940545}]